{"type": "FeatureCollection", "features": [{"type": "Feature", "properties": {"name": "MER-POD-004 MID Atwater Canal Headgate", "stream": "Atwater Canal", "cfs": 900.0}, "geometry": {"type": "Point", "coordinates": [-120.6206689172552, 37.35766964115409]}}, {"type": "Feature", "properties": {"name": "MER-POD-005 Le Grand Canal Headgate", "stream": "Le Grand Canal", "cfs": 220.0}, "geometry": {"type": "Point", "coordinates": [-120.29910810649505, 37.31350768147945]}}, {"type": "Feature", "properties": {"name": "MER-POD-006 Stevinson Diversion Canal Headgate", "stream": "Diversion Canal", "cfs": 260.0}, "geometry": {"type": "Point", "coordinates": [-120.51707442647276, 37.10586168748617]}}, {"type": "Feature", "properties": {"name": "MER-POD-007 Plainsburg El Nido Canal Headgate", "stream": "El Nido Canal", "cfs": 130.0}, "geometry": {"type": "Point", "coordinates": [-120.40971401259537, 37.21065619149301]}}, {"type": "Feature", "properties": {"name": "MER-POD-008 Crocker-Huffman River Diversion", "stream": "Merced River", "cfs": 700.0}, "geometry": {"type": "Point", "coordinates": [-120.37173121468378, 37.51370153708293]}}, {"type": "Feature", "properties": {"name": "MER-POD-009 Bottomlands Riparian Take", "stream": "Merced River", "cfs": 45.0}, "geometry": {"type": "Point", "coordinates": [-120.74108937111926, 37.399826932780456]}}]}